[
  {
    "name": "Ciudad Juárez",
    "phone_number": "Not Provided",
    "international_phone_number": "Not Provided",
    "address": "Ciudad Juárez, Chihuahua, Mexico",
    "latitude": 31.6903638,
    "longitude": -106.4245478
  },
  {
    "name": "Hilton Garden Inn El Paso / University",
    "phone_number": "(915) 351-2121",
    "international_phone_number": "+1 915-351-2121",
    "address": "111 W University Ave, El Paso, TX 79902, USA",
    "latitude": 31.7729098,
    "longitude": -106.5016606
  },
  {
    "name": "Holiday Inn Express El Paso - Downtown, an IHG Hotel",
    "phone_number": "(915) 544-3333",
    "international_phone_number": "+1 915-544-3333",
    "address": "409 E Missouri Ave, El Paso, TX 79901, USA",
    "latitude": 31.763395,
    "longitude": -106.488145
  },
  {
    "name": "University of Texas at El Paso",
    "phone_number": "(915) 747-5000",
    "international_phone_number": "+1 915-747-5000",
    "address": "500 W University Ave, El Paso, TX 79968, USA",
    "latitude": 31.7731979,
    "longitude": -106.5047208
  },
  {
    "name": "Anson Mills",
    "phone_number": "(915) 504-6400",
    "international_phone_number": "+1 915-504-6400",
    "address": "303 N Oregon St, El Paso, TX 79901, USA",
    "latitude": 31.7590635,
    "longitude": -106.4888809
  },
  {
    "name": "KLAQ-FM Antenna",
    "phone_number": "Not Provided",
    "international_phone_number": "Not Provided",
    "address": "El Paso, TX 79902, USA",
    "latitude": 31.7965139,
    "longitude": -106.4825645
  },
  {
    "name": "The Hospitals of Providence Sierra Campus",
    "phone_number": "(915) 747-4000",
    "international_phone_number": "+1 915-747-4000",
    "address": "1625 Medical Center St Drive, El Paso, TX 79902, USA",
    "latitude": 31.777699,
    "longitude": -106.4808984
  },
  {
    "name": "DoubleTree by Hilton Hotel El Paso Downtown",
    "phone_number": "(915) 532-8733",
    "international_phone_number": "+1 915-532-8733",
    "address": "600 N El Paso St, El Paso, TX 79901, USA",
    "latitude": 31.76104260000001,
    "longitude": -106.4914575
  },
  {
    "name": "Bowie High School",
    "phone_number": "(915) 236-7000",
    "international_phone_number": "+1 915-236-7000",
    "address": "801 S San Marcial St, El Paso, TX 79905, USA",
    "latitude": 31.7667153,
    "longitude": -106.4583673
  },
  {
    "name": "Mrs. Fields",
    "phone_number": "(915) 533-8826",
    "international_phone_number": "+1 915-533-8826",
    "address": "123 W Mills Ave Ste 130, El Paso, TX 79901, USA",
    "latitude": 31.75866309999999,
    "longitude": -106.4891626
  },
  {
    "name": "Parking Office",
    "phone_number": "(915) 534-0624",
    "international_phone_number": "+1 915-534-0624",
    "address": "1 Civic Center Plz, El Paso, TX 79901, USA",
    "latitude": 31.757656,
    "longitude": -106.491774
  },
  {
    "name": "Don Haskins Center",
    "phone_number": "(915) 747-5481",
    "international_phone_number": "+1 915-747-5481",
    "address": "151 Glory Rd, El Paso, TX 79902, USA",
    "latitude": 31.7776195,
    "longitude": -106.5056719
  },
  {
    "name": "Dr. Anju A. Mani, MD",
    "phone_number": "(915) 747-2781",
    "international_phone_number": "+1 915-747-2781",
    "address": "1625 Medical Center St Drive, El Paso, TX 79902, USA",
    "latitude": 31.777573,
    "longitude": -106.480614
  },
  {
    "name": "El Paso Film & Creative Industries Commission",
    "phone_number": "(915) 534-0698",
    "international_phone_number": "+1 915-534-0698",
    "address": "1 Civic Center Plaza, El Paso, TX 79901, USA",
    "latitude": 31.7583448,
    "longitude": -106.4912719
  },
  {
    "name": "Kenneth Berumen, MD",
    "phone_number": "(915) 747-2220",
    "international_phone_number": "+1 915-747-2220",
    "address": "1625 Medical Center St, El Paso, TX 79902, USA",
    "latitude": 31.7776436,
    "longitude": -106.4804736
  },
  {
    "name": "Providence Imaging Consultants",
    "phone_number": "(915) 747-4000",
    "international_phone_number": "+1 915-747-4000",
    "address": "1625 Medical Center St, El Paso, TX 79902, USA",
    "latitude": 31.777568,
    "longitude": -106.480603
  },
  {
    "name": "Jimmy Garza Emergency Water Removal",
    "phone_number": "(915) 474-9472",
    "international_phone_number": "+1 915-474-9472",
    "address": "1110 N Piedras St, El Paso, TX 79903, USA",
    "latitude": 31.7854273,
    "longitude": -106.4609917
  },
  {
    "name": "Dr. Scott A. Blumenfeld, MD",
    "phone_number": "(915) 747-2617",
    "international_phone_number": "+1 915-747-2617",
    "address": "1625 Medical Center St Drive, El Paso, TX 79902, USA",
    "latitude": 31.777573,
    "longitude": -106.480614
  },
  {
    "name": "El Paso",
    "phone_number": "(800) 872-7245",
    "international_phone_number": "+1 800-872-7245",
    "address": "700 W San Francisco Ave, El Paso, TX 79901, USA",
    "latitude": 31.75738239999999,
    "longitude": -106.4959039
  },
  {
    "name": "El Paso",
    "phone_number": "Not Provided",
    "international_phone_number": "Not Provided",
    "address": "El Paso, TX, USA",
    "latitude": 31.7618778,
    "longitude": -106.4850217
  }
]